$GPGSV,3,1,12,02,39,291,45,25,57,165,45,04,48,239,46,13,82,049,42*7C
$GPGSV,3,2,12,20,14,124,28,23,50,071,48,16,18,053,39,27,40,186,33*73
$GPGSV,3,3,12,10,10,299,36,08,13,195,32,07,01,001,20,06,03,352,*7F
$GPGLL,5233.0003,N,1321.0449,E,000001.0,A,,*09
$GPGGA,000001.000,5233.0003,N,01321.0449,E,1,08,1.0,0.0,M,0.0,M,,*68
$GPGSA,A,3,25,20,23,24,16,13,11,1,4,,,,1.763,0.931,1.497*33
$GPRMC,000001.000,A,5233.0003,N,01321.0449,E,8.647,228.740,030108,0.0,E,*45
$GPGST,000001.0,14.0,10.9,6.3,76.5,6.1,9.8,22.2*6E
$GPVTG,78.8,T,80.9,M,8.647,N,16.000,K,A*1F
$GPGSV,3,1,12,02,39,291,45,25,57,165,45,04,48,239,46,13,82,049,42*7C
$GPGSV,3,2,12,20,14,124,28,23,50,071,48,16,18,053,39,27,40,186,33*73
$GPGSV,3,3,12,10,10,299,36,08,13,195,32,07,01,001,20,06,03,352,*7F
$GPGLL,5232.9986,N,1321.0417,E,000002.0,A,,*0D
$GPGGA,000002.000,5232.9986,N,01321.0417,E,1,08,1.0,0.0,M,0.0,M,,*6C
$GPGSA,A,3,25,20,23,24,16,13,11,1,4,,,,1.763,0.931,1.497*33
$GPRMC,000002.000,A,5232.9986,N,01321.0417,E,8.647,228.740,030108,0.0,E,*41
$GPGST,000002.0,14.0,10.9,6.3,76.5,6.1,9.8,22.2*6D
$GPVTG,78.8,T,80.9,M,8.647,N,16.000,K,A*1F
$GPGSV,3,1,12,02,39,291,45,25,57,165,45,04,48,239,46,13,82,049,42*7C
$GPGSV,3,2,12,20,14,124,28,23,50,071,48,16,18,053,39,27,40,186,33*73
$GPGSV,3,3,12,10,10,299,36,08,13,195,32,07,01,001,20,06,03,352,*7F
$GPGLL,5232.9969,N,1321.0386,E,000003.0,A,,*02
$GPGGA,000003.000,5232.9969,N,01321.0386,E,1,08,1.0,0.0,M,0.0,M,,*63
$GPGSA,A,3,25,20,23,24,16,13,11,1,4,,,,1.763,0.931,1.497*33
$GPRMC,000003.000,A,5232.9969,N,01321.0386,E,8.647,228.740,030108,0.0,E,*4E
$GPGST,000003.0,14.0,10.9,6.3,76.5,6.1,9.8,22.2*6C
$GPVTG,78.8,T,80.9,M,8.647,N,16.000,K,A*1F
$GPGSV,3,1,12,02,39,291,45,25,57,165,45,04,48,239,46,13,82,049,42*7C
$GPGSV,3,2,12,20,14,124,28,23,50,071,48,16,18,053,39,27,40,186,33*73
$GPGSV,3,3,12,10,10,299,36,08,13,195,32,07,01,001,20,06,03,352,*7F
$GPGLL,5232.9953,N,1321.0356,E,000004.0,A,,*01
$GPGGA,000004.000,5232.9953,N,01321.0356,E,1,08,1.0,0.0,M,0.0,M,,*60
$GPGSA,A,3,25,20,23,24,16,13,11,1,4,,,,1.763,0.931,1.497*33
$GPRMC,000004.000,A,5232.9953,N,01321.0356,E,8.647,228.740,030108,0.0,E,*4D
$GPGST,000004.0,14.0,10.9,6.3,76.5,6.1,9.8,22.2*6B
$GPVTG,78.8,T,80.9,M,8.647,N,16.000,K,A*1F
$GPGSV,3,1,12,02,39,291,45,25,57,165,45,04,48,239,46,13,82,049,42*7C
$GPGSV,3,2,12,20,14,124,28,23,50,071,48,16,18,053,39,27,40,186,33*73
$GPGSV,3,3,12,10,10,299,36,08,13,195,32,07,01,001,20,06,03,352,*7F
$GPGLL,5232.9936,N,1321.0325,E,000005.0,A,,*07
$GPGGA,000005.000,5232.9936,N,01321.0325,E,1,08,1.0,0.0,M,0.0,M,,*66
$GPGSA,A,3,25,20,23,24,16,13,11,1,4,,,,1.763,0.931,1.497*33
$GPRMC,000005.000,A,5232.9936,N,01321.0325,E,8.647,228.740,030108,0.0,E,*4B
$GPGST,000005.0,14.0,10.9,6.3,76.5,6.1,9.8,22.2*6A
$GPVTG,78.8,T,80.9,M,8.647,N,16.000,K,A*1F
$GPGSV,3,1,12,02,39,291,45,25,57,165,45,04,48,239,46,13,82,049,42*7C
$GPGSV,3,2,12,20,14,124,28,23,50,071,48,16,18,053,39,27,40,186,33*73
$GPGSV,3,3,12,10,10,299,36,08,13,195,32,07,01,001,20,06,03,352,*7F
$GPGLL,5232.9920,N,1321.0294,E,000006.0,A,,*08
$GPGGA,000006.000,5232.9920,N,01321.0294,E,1,08,1.0,0.0,M,0.0,M,,*69
$GPGSA,A,3,25,20,23,24,16,13,11,1,4,,,,1.763,0.931,1.497*33
$GPRMC,000006.000,A,5232.9920,N,01321.0294,E,8.647,228.740,030108,0.0,E,*44
$GPGST,000006.0,14.0,10.9,6.3,76.5,6.1,9.8,22.2*69
$GPVTG,78.8,T,80.9,M,8.647,N,16.000,K,A*1F
$GPGSV,3,1,12,02,39,291,45,25,57,165,45,04,48,239,46,13,82,049,42*7C
$GPGSV,3,2,12,20,14,124,28,23,50,071,48,16,18,053,39,27,40,186,33*73
$GPGSV,3,3,12,10,10,299,36,08,13,195,32,07,01,001,20,06,03,352,*7F
$GPGLL,5232.9903,N,1321.0263,E,000007.0,A,,*00
$GPGGA,000007.000,5232.9903,N,01321.0263,E,1,08,1.0,0.0,M,0.0,M,,*61
$GPGSA,A,3,25,20,23,24,16,13,11,1,4,,,,1.763,0.931,1.497*33
$GPRMC,000007.000,A,5232.9903,N,01321.0263,E,8.647,228.740,030108,0.0,E,*4C
$GPGST,000007.0,14.0,10.9,6.3,76.5,6.1,9.8,22.2*68
$GPVTG,78.8,T,80.9,M,8.647,N,16.000,K,A*1F
$GPGSV,3,1,12,02,39,291,45,25,57,165,45,04,48,239,46,13,82,049,42*7C
$GPGSV,3,2,12,20,14,124,28,23,50,071,48,16,18,053,39,27,40,186,33*73
$GPGSV,3,3,12,10,10,299,36,08,13,195,32,07,01,001,20,06,03,352,*7F
$GPGLL,5232.9887,N,1321.0233,E,000008.0,A,,*07
$GPGGA,000008.000,5232.9887,N,01321.0233,E,1,08,1.0,0.0,M,0.0,M,,*66
$GPGSA,A,3,25,20,23,24,16,13,11,1,4,,,,1.763,0.931,1.497*33
$GPRMC,000008.000,A,5232.9887,N,01321.0233,E,8.647,228.740,030108,0.0,E,*4B
$GPGST,000008.0,14.0,10.9,6.3,76.5,6.1,9.8,22.2*67
$GPVTG,78.8,T,80.9,M,8.647,N,16.000,K,A*1F
$GPGSV,3,1,12,02,39,291,45,25,57,165,45,04,48,239,46,13,82,049,42*7C
$GPGSV,3,2,12,20,14,124,28,23,50,071,48,16,18,053,39,27,40,186,33*73
$GPGSV,3,3,12,10,10,299,36,08,13,195,32,07,01,001,20,06,03,352,*7F
$GPGLL,5232.9856,N,1321.0175,E,000009.0,A,,*0B
$GPGGA,000009.000,5232.9856,N,01321.0175,E,1,08,1.0,0.0,M,0.0,M,,*6A
$GPGSA,A,3,25,20,23,24,16,13,11,1,4,,,,1.763,0.931,1.497*33
$GPRMC,000009.000,A,5232.9856,N,01321.0175,E,16.213,228.740,030108,0.0,E,*7D
$GPGST,000009.0,14.0,10.9,6.3,76.5,6.1,9.8,22.2*66
$GPVTG,78.8,T,80.9,M,16.213,N,30.000,K,A*21
$GPGSV,3,1,12,02,39,291,45,25,57,165,45,04,48,239,46,13,82,049,42*7C
$GPGSV,3,2,12,20,14,124,28,23,50,071,48,16,18,053,39,27,40,186,33*73
$GPGSV,3,3,12,10,10,299,36,08,13,195,32,07,01,001,20,06,03,352,*7F
$GPGLL,5232.9822,N,1321.0112,E,000010.0,A,,*01
$GPGGA,000010.000,5232.9822,N,01321.0112,E,1,08,1.0,0.0,M,0.0,M,,*60
$GPGSA,A,3,25,20,23,24,16,13,11,1,4,,,,1.763,0.931,1.497*33
$GPRMC,000010.000,A,5232.9822,N,01321.0112,E,17.834,228.740,030108,0.0,E,*79
$GPGST,000010.0,14.0,10.9,6.3,76.5,6.1,9.8,22.2*6E
$GPVTG,78.8,T,80.9,M,17.834,N,33.000,K,A*2C
$GPGSV,3,1,12,02,39,291,45,25,57,165,45,04,48,239,46,13,82,049,42*7C
$GPGSV,3,2,12,20,14,124,28,23,50,071,48,16,18,053,39,27,40,186,33*73
$GPGSV,3,3,12,10,10,299,36,08,13,195,32,07,01,001,20,06,03,352,*7F
$GPGLL,5232.9789,N,1321.0050,E,000011.0,A,,*09
$GPGGA,000011.000,5232.9789,N,01321.0050,E,1,08,1.0,0.0,M,0.0,M,,*68
$GPGSA,A,3,25,20,23,24,16,13,11,1,4,,,,1.763,0.931,1.497*33
$GPRMC,000011.000,A,5232.9789,N,01321.0050,E,17.834,229.157,030108,0.0,E,*70
$GPGST,000011.0,14.0,10.9,6.3,76.5,6.1,9.8,22.2*6F
$GPVTG,78.8,T,80.9,M,17.834,N,33.000,K,A*2C
$GPGSV,3,1,12,02,39,291,45,25,57,165,45,04,48,239,46,13,82,049,42*7C
$GPGSV,3,2,12,20,14,124,28,23,50,071,48,16,18,053,39,27,40,186,33*73
$GPGSV,3,3,12,10,10,299,36,08,13,195,32,07,01,001,20,06,03,352,*7F
$GPGLL,5232.9756,N,1320.9988,E,000012.0,A,,*0C
$GPGGA,000012.000,5232.9756,N,01320.9988,E,1,08,1.0,0.0,M,0.0,M,,*6D
$GPGSA,A,3,25,20,23,24,16,13,11,1,4,,,,1.763,0.931,1.497*33
$GPRMC,000012.000,A,5232.9756,N,01320.9988,E,17.834,229.157,030108,0.0,E,*75
$GPGST,000012.0,14.0,10.9,6.3,76.5,6.1,9.8,22.2*6C
$GPVTG,78.8,T,80.9,M,17.834,N,33.000,K,A*2C
$GPGSV,3,1,12,02,39,291,45,25,57,165,45,04,48,239,46,13,82,049,42*7C
$GPGSV,3,2,12,20,14,124,28,23,50,071,48,16,18,053,39,27,40,186,33*73
$GPGSV,3,3,12,10,10,299,36,08,13,195,32,07,01,001,20,06,03,352,*7F
$GPGLL,5232.9723,N,1320.9926,E,000013.0,A,,*0B
$GPGGA,000013.000,5232.9723,N,01320.9926,E,1,08,1.0,0.0,M,0.0,M,,*6A
$GPGSA,A,3,25,20,23,24,16,13,11,1,4,,,,1.763,0.931,1.497*33
$GPRMC,000013.000,A,5232.9723,N,01320.9926,E,17.834,229.157,030108,0.0,E,*72
$GPGST,000013.0,14.0,10.9,6.3,76.5,6.1,9.8,22.2*6D
$GPVTG,78.8,T,80.9,M,17.834,N,33.000,K,A*2C
$GPGSV,3,1,12,02,39,291,45,25,57,165,45,04,48,239,46,13,82,049,42*7C
$GPGSV,3,2,12,20,14,124,28,23,50,071,48,16,18,053,39,27,40,186,33*73
$GPGSV,3,3,12,10,10,299,36,08,13,195,32,07,01,001,20,06,03,352,*7F
$GPGLL,5232.9690,N,1320.9864,E,000014.0,A,,*02
$GPGGA,000014.000,5232.9690,N,01320.9864,E,1,08,1.0,0.0,M,0.0,M,,*63
$GPGSA,A,3,25,20,23,24,16,13,11,1,4,,,,1.763,0.931,1.497*33
$GPRMC,000014.000,A,5232.9690,N,01320.9864,E,17.834,229.157,030108,0.0,E,*7B
$GPGST,000014.0,14.0,10.9,6.3,76.5,6.1,9.8,22.2*6A
$GPVTG,78.8,T,80.9,M,17.834,N,33.000,K,A*2C
$GPGSV,3,1,12,02,39,291,45,25,57,165,45,04,48,239,46,13,82,049,42*7C
$GPGSV,3,2,12,20,14,124,28,23,50,071,48,16,18,053,39,27,40,186,33*73
$GPGSV,3,3,12,10,10,299,36,08,13,195,32,07,01,001,20,06,03,352,*7F
$GPGLL,5232.9657,N,1320.9802,E,000015.0,A,,*08
$GPGGA,000015.000,5232.9657,N,01320.9802,E,1,08,1.0,0.0,M,0.0,M,,*69
$GPGSA,A,3,25,20,23,24,16,13,11,1,4,,,,1.763,0.931,1.497*33
$GPRMC,000015.000,A,5232.9657,N,01320.9802,E,17.834,229.157,030108,0.0,E,*71
$GPGST,000015.0,14.0,10.9,6.3,76.5,6.1,9.8,22.2*6B
$GPVTG,78.8,T,80.9,M,17.834,N,33.000,K,A*2C
$GPGSV,3,1,12,02,39,291,45,25,57,165,45,04,48,239,46,13,82,049,42*7C
$GPGSV,3,2,12,20,14,124,28,23,50,071,48,16,18,053,39,27,40,186,33*73
$GPGSV,3,3,12,10,10,299,36,08,13,195,32,07,01,001,20,06,03,352,*7F
$GPGLL,5232.9607,N,1320.9706,E,000016.0,A,,*05
$GPGGA,000016.000,5232.9607,N,01320.9706,E,1,08,1.0,0.0,M,0.0,M,,*64
$GPGSA,A,3,25,20,23,24,16,13,11,1,4,,,,1.763,0.931,1.497*33
$GPRMC,000016.000,A,5232.9607,N,01320.9706,E,27.562,229.157,030108,0.0,E,*71
$GPGST,000016.0,14.0,10.9,6.3,76.5,6.1,9.8,22.2*68
$GPVTG,78.8,T,80.9,M,27.562,N,51.000,K,A*25
$GPGSV,3,1,12,02,39,291,45,25,57,165,45,04,48,239,46,13,82,049,42*7C
$GPGSV,3,2,12,20,14,124,28,23,50,071,48,16,18,053,39,27,40,186,33*73
$GPGSV,3,3,12,10,10,299,36,08,13,195,32,07,01,001,20,06,03,352,*7F
$GPGLL,5232.9556,N,1320.9611,E,000017.0,A,,*04
$GPGGA,000017.000,5232.9556,N,01320.9611,E,1,08,1.0,0.0,M,0.0,M,,*65
$GPGSA,A,3,25,20,23,24,16,13,11,1,4,,,,1.763,0.931,1.497*33
$GPRMC,000017.000,A,5232.9556,N,01320.9611,E,27.562,229.157,030108,0.0,E,*70
$GPGST,000017.0,14.0,10.9,6.3,76.5,6.1,9.8,22.2*69
$GPVTG,78.8,T,80.9,M,27.562,N,51.000,K,A*25
$GPGSV,3,1,12,02,39,291,45,25,57,165,45,04,48,239,46,13,82,049,42*7C
$GPGSV,3,2,12,20,14,124,28,23,50,071,48,16,18,053,39,27,40,186,33*73
$GPGSV,3,3,12,10,10,299,36,08,13,195,32,07,01,001,20,06,03,352,*7F
$GPGLL,5232.9505,N,1320.9515,E,000018.0,A,,*0A
$GPGGA,000018.000,5232.9505,N,01320.9515,E,1,08,1.0,0.0,M,0.0,M,,*6B
$GPGSA,A,3,25,20,23,24,16,13,11,1,4,,,,1.763,0.931,1.497*33
$GPRMC,000018.000,A,5232.9505,N,01320.9515,E,27.562,229.157,030108,0.0,E,*7E
$GPGST,000018.0,14.0,10.9,6.3,76.5,6.1,9.8,22.2*66
$GPVTG,78.8,T,80.9,M,27.562,N,51.000,K,A*25
$GPGSV,3,1,12,02,39,291,45,25,57,165,45,04,48,239,46,13,82,049,42*7C
$GPGSV,3,2,12,20,14,124,28,23,50,071,48,16,18,053,39,27,40,186,33*73
$GPGSV,3,3,12,10,10,299,36,08,13,195,32,07,01,001,20,06,03,352,*7F
$GPGLL,5232.9454,N,1320.9419,E,000019.0,A,,*03
$GPGGA,000019.000,5232.9454,N,01320.9419,E,1,08,1.0,0.0,M,0.0,M,,*62
$GPGSA,A,3,25,20,23,24,16,13,11,1,4,,,,1.763,0.931,1.497*33
$GPRMC,000019.000,A,5232.9454,N,01320.9419,E,27.562,229.157,030108,0.0,E,*77
$GPGST,000019.0,14.0,10.9,6.3,76.5,6.1,9.8,22.2*67
$GPVTG,78.8,T,80.9,M,27.562,N,51.000,K,A*25
$GPGSV,3,1,12,02,39,291,45,25,57,165,45,04,48,239,46,13,82,049,42*7C
$GPGSV,3,2,12,20,14,124,28,23,50,071,48,16,18,053,39,27,40,186,33*73
$GPGSV,3,3,12,10,10,299,36,08,13,195,32,07,01,001,20,06,03,352,*7F
$GPGLL,5232.9404,N,1320.9324,E,000020.0,A,,*05
$GPGGA,000020.000,5232.9404,N,01320.9324,E,1,08,1.0,0.0,M,0.0,M,,*64
$GPGSA,A,3,25,20,23,24,16,13,11,1,4,,,,1.763,0.931,1.497*33
$GPRMC,000020.000,A,5232.9404,N,01320.9324,E,27.562,229.157,030108,0.0,E,*71
$GPGST,000020.0,14.0,10.9,6.3,76.5,6.1,9.8,22.2*6D
$GPVTG,78.8,T,80.9,M,27.562,N,51.000,K,A*25
$GPGSV,3,1,12,02,39,291,45,25,57,165,45,04,48,239,46,13,82,049,42*7C
$GPGSV,3,2,12,20,14,124,28,23,50,071,48,16,18,053,39,27,40,186,33*73
$GPGSV,3,3,12,10,10,299,36,08,13,195,32,07,01,001,20,06,03,352,*7F
$GPGLL,5232.9353,N,1320.9228,E,000021.0,A,,*0C
$GPGGA,000021.000,5232.9353,N,01320.9228,E,1,08,1.0,0.0,M,0.0,M,,*6D
$GPGSA,A,3,25,20,23,24,16,13,11,1,4,,,,1.763,0.931,1.497*33
$GPRMC,000021.000,A,5232.9353,N,01320.9228,E,27.562,229.157,030108,0.0,E,*78
$GPGST,000021.0,14.0,10.9,6.3,76.5,6.1,9.8,22.2*6C
$GPVTG,78.8,T,80.9,M,27.562,N,51.000,K,A*25
